{"type":"FeatureCollection", "features": [
{"type":"Feature","geometry":{"type":"Point","coordinates":[9.155567631859649,45.473769948446666]},"properties":{"id":11,"nome":"Giulio Cesare","n_posti":116,"indirizzo":"Piazza Giulio Cesare","comune":"Milano","tipo":"RESIDENTI/PUBBLICI"}},
{"type":"Feature","geometry":{"type":"Point","coordinates":[9.179751245615957,45.467191008177885]},"properties":{"id":14,"nome":"Puccini","n_posti":184,"indirizzo":"Via Puccini","comune":"Milano","tipo":"RESIDENTI/PUBBLICI"}},
{"type":"Feature","geometry":{"type":"Point","coordinates":[9.202610228164547,45.4661114870698]},"properties":{"id":15,"nome":"Mascagni","n_posti":222,"indirizzo":"Via Mascagni","comune":"Milano","tipo":"RESIDENTI/PUBBLICI"}},
{"type":"Feature","geometry":{"type":"Point","coordinates":[9.205405998137977,45.472516916903295]},"properties":{"id":16,"nome":"Majno","n_posti":163,"indirizzo":"Viale Majno","comune":"Milano","tipo":"RESIDENTI/PUBBLICI"}},
{"type":"Feature","geometry":{"type":"Point","coordinates":[9.168613066918468,45.48154455747951]},"properties":{"id":17,"nome":"Gramsci","n_posti":122,"indirizzo":"Piazza Gramsci","comune":"Milano","tipo":"RESIDENTI/PUBBLICI"}},
{"type":"Feature","geometry":{"type":"Point","coordinates":[9.201387633091807,45.48322081813358]},"properties":{"id":23,"nome":"Vittor Pisani","n_posti":964,"indirizzo":"Vittor Pisani","comune":"Milano","tipo":"PUBBLICI"}},
{"type":"Feature","geometry":{"type":"Point","coordinates":[9.197576155297083,45.45944060384233]},"properties":{"id":42,"nome":"San Barnaba","n_posti":750,"indirizzo":"San Barnaba","comune":"Milano","tipo":"PUBBLICI"}},
{"type":"Feature","geometry":{"type":"Point","coordinates":[9.145972916049503,45.485540734301196]},"properties":{"id":44,"nome":"U3 Portello","n_posti":706,"indirizzo":"Scarampo","comune":"Milano","tipo":"AUTORIMESSA CONVENZIONATA"}},
{"type":"Feature","geometry":{"type":"Point","coordinates":[9.21343749035093,45.516022038427856]},"properties":{"id":45,"nome":"Bicocca P7","n_posti":712,"indirizzo":"Via Vizzola / Innovazione","comune":"Milano","tipo":"PUBBLICI"}},
{"type":"Feature","geometry":{"type":"Point","coordinates":[9.216344540519959,45.46836815786165]},"properties":{"id":50,"nome":"Dateo nord","n_posti":183,"indirizzo":"Piazzale Dateo","comune":"Milano","tipo":"PUBBLICI/RESIDENTI"}},
{"type":"Feature","geometry":{"type":"Point","coordinates":[9.194177959595722,45.449742354073614]},"properties":{"id":52,"nome":"Vittadini","n_posti":200,"indirizzo":"Via Vittadini","comune":"Milano","tipo":"PUBBLICI/RESIDENTI"}},
{"type":"Feature","geometry":{"type":"Point","coordinates":[9.201572307465733,45.45115013805212]},"properties":{"id":54,"nome":"Sabotino","n_posti":162,"indirizzo":"Viale Sabotino","comune":"Milano","tipo":"PUBBLICI/RESIDENTI"}},
{"type":"Feature","geometry":{"type":"Point","coordinates":[9.183269889636101,45.48928044912289]},"properties":{"id":139,"nome":"Carlo Farini","n_posti":94,"indirizzo":"Via Farini, 30","comune":"Milano","tipo":"AUTORIMESSA CONVENZIONATA"}},
{"type":"Feature","geometry":{"type":"Point","coordinates":[9.19473485656943,45.481934342850856]},"properties":{"id":143,"nome":"Varesine","n_posti":478,"indirizzo":"Viale della Liberazione","comune":"Milano","tipo":"AUTORIMESSA CONVENZIONATA"}},
{"type":"Feature","geometry":{"type":"Point","coordinates":[9.19501192048985,45.487658870312465]},"properties":{"id":210,"nome":"Sassetti Restelli","n_posti":211,"indirizzo":"Via Sassetti /Via Restelli","comune":"Milano","tipo":"AUTORIMESSA CONVENZIONATA"}},
{"type":"Feature","geometry":{"type":"Point","coordinates":[9.127456739654214,45.44710546372811]},"properties":{"id":243,"nome":"Lorenteggio Koch","n_posti":88,"indirizzo":"via Lorenteggio 278 (ora Via Roberto Koch 14)","comune":"Milano","tipo":"AUTORIMESSA CONVENZIONATA"}},
{"type":"Feature","geometry":{"type":"Point","coordinates":[9.225430887424814,45.46227416505316]},"properties":{"id":274,"nome":"Campania Viale Corsica","n_posti":144,"indirizzo":"Viale Campania","comune":"Milano","tipo":"AUTORIMESSA CONVENZIONATA"}},
{"type":"Feature","geometry":{"type":"Point","coordinates":[9.190746046363927,45.48341418184788]},"properties":{"id":291,"nome":"Garibaldi/Repubblica Edificio Podio P-II","n_posti":77,"indirizzo":"Piazza Gae Aulenti","comune":"Milano","tipo":"AUTORIMESSA CONVENZIONATA"}},
{"type":"Feature","geometry":{"type":"Point","coordinates":[9.175621841023318,45.48252368723295]},"properties":{"id":300,"nome":"Messina","n_posti":81,"indirizzo":"Via Messina 10","comune":"Milano","tipo":"AUTORIMESSA CONVENZIONATA"}},
{"type":"Feature","geometry":{"type":"Point","coordinates":[9.195178144288445,45.480196782833275]},"properties":{"id":315,"nome":"Galileo Galilei Marco Polo","n_posti":200,"indirizzo":"Via Galileo Galilei 5 angolo Marco Polo","comune":"Milano","tipo":"AUTORIMESSA CONVENZIONATA"}},
{"type":"Feature","geometry":{"type":"Point","coordinates":[9.1618286498729,45.46472201758815]},"properties":{"id":468,"nome":"Soresina","n_posti":92,"indirizzo":"Via Soresina 14","comune":"Milano","tipo":"AUTORIMESSA CONVENZIONATA"}},
{"type":"Feature","geometry":{"type":"Point","coordinates":[9.172268315074064,45.46109735836002]},"properties":{"id":539,"nome":"Carducci Olona","n_posti":160,"indirizzo":"Carducci - Olona","comune":"Milano","tipo":"AUTORIMESSA CONVENZIONATA"}},
{"type":"Feature","geometry":{"type":"Point","coordinates":[9.176171606012762,45.49471015738976]},"properties":{"id":540,"nome":"Lancetti  Aprica","n_posti":226,"indirizzo":"Lancetti / Aprica / Maloia","comune":"Milano","tipo":"AUTORIMESSA CONVENZIONATA"}},
{"type":"Feature","geometry":{"type":"Point","coordinates":[9.192546268562657,45.45582490315316]},"properties":{"id":571,"nome":"Cardinal Ferrari","n_posti":200,"indirizzo":"Via Cardinal  Ferrari","comune":"Milano","tipo":"RESIDENTI/PUBBLICI"}},
{"type":"Feature","geometry":{"type":"Point","coordinates":[9.154613992322924,45.46660190140826]},"properties":{"id":605,"nome":"Washington/Piemonte","n_posti":177,"indirizzo":"Piazza Piemonte","comune":"Milano","tipo":"RESIDENTI/PUBBLICI"}},
{"type":"Feature","geometry":{"type":"Point","coordinates":[9.175125475464565,45.46333587355011]},"properties":{"id":646,"nome":"Sant'Ambrogio","n_posti":234,"indirizzo":"Piazza Sant'Ambrogio","comune":"Milano","tipo":"PUBBLICI/RESIDENTI"}},
{"type":"Feature","geometry":{"type":"Point","coordinates":[9.193234201487453,45.46701739375241]},"properties":{"id":649,"nome":"Meda","n_posti":522,"indirizzo":"Piazza Meda","comune":"Milano","tipo":"PUBBLICI"}},
{"type":"Feature","geometry":{"type":"Point","coordinates":[9.210682747337602,45.46836117526095]},"properties":{"id":651,"nome":"Risorgimento nord","n_posti":178,"indirizzo":"Piazza Risorgimento","comune":"Milano","tipo":"PUBBLICI/RESIDENTI"}},
{"type":"Feature","geometry":{"type":"Point","coordinates":[9.200585266129174,45.478776316895875]},"properties":{"id":652,"nome":"Manuzio","n_posti":150,"indirizzo":"Via  Manuzio","comune":"Milano","tipo":"PUBBLICI/RESIDENTI"}},
{"type":"Feature","geometry":{"type":"Point","coordinates":[9.16690001414884,45.47189397606221]},"properties":{"id":661,"nome":"Quinto Alpini","n_posti":238,"indirizzo":"Largo Quinto Alpini","comune":"Milano","tipo":"PUBBLICI/RESIDENTI"}},
{"type":"Feature","geometry":{"type":"Point","coordinates":[9.187002454557417,45.480801160002926]},"properties":{"id":670,"nome":"XXV Aprile","n_posti":333,"indirizzo":"Piazza Venticinque Aprile","comune":"Milano","tipo":"PUBBLICI/RESIDENTI"}},
{"type":"Feature","geometry":{"type":"Point","coordinates":[9.18986539504442,45.48347360289434]},"properties":{"id":690,"nome":"Garibaldi/Repubblica Edificio Podio P-III","n_posti":298,"indirizzo":"Piazza Gae Aulenti","comune":"Milano","tipo":"AUTORIMESSA CONVENZIONATA"}},
{"type":"Feature","geometry":{"type":"Point","coordinates":[9.217198956351197,45.47369440555568]},"properties":{"id":777,"nome":"Abruzzi","n_posti":116,"indirizzo":"Viale Abruzzi 94","comune":"Milano","tipo":"AUTORIMESSA CONVENZIONATA"}},
{"type":"Feature","geometry":{"type":"Point","coordinates":[9.146848925986728,45.49074318207644]},"properties":{"id":779,"nome":"U2 Portello","n_posti":195,"indirizzo":"Marco Ulpio Traiano","comune":"Milano","tipo":"AUTORIMESSA CONVENZIONATA"}},
{"type":"Feature","geometry":{"type":"Point","coordinates":[9.145249175352014,45.47904692996743]},"properties":{"id":790,"nome":"Masaccio","n_posti":328,"indirizzo":"Via Masaccio 19","comune":"Milano","tipo":"AUTORIMESSA CONVENZIONATA"}},
{"type":"Feature","geometry":{"type":"Point","coordinates":[9.152047972871502,45.44906398029731]},"properties":{"id":797,"nome":"Savona Tolstoj","n_posti":77,"indirizzo":"Savona / Tolstoj Concessione","comune":"Milano","tipo":"PUBBLICI"}},
{"type":"Feature","geometry":{"type":"Point","coordinates":[9.150424673388066,45.4670058896172]},"properties":{"id":855,"nome":"Marghera Sanzio","n_posti":21,"indirizzo":"Via Marghera / Sanzio","comune":"Milano","tipo":"AUTORIMESSA CONVENZIONATA"}},
{"type":"Feature","geometry":{"type":"Point","coordinates":[9.196162962039455,45.45051868525238]},"properties":{"id":955,"nome":"Ripamonti Salasco","n_posti":120,"indirizzo":"Via Ripamonti / Salasco","comune":"Milano","tipo":"AUTORIMESSA CONVENZIONATA"}},
{"type":"Feature","geometry":{"type":"Point","coordinates":[9.201452246656016,45.477863598505806]},"properties":{"id":980,"nome":"Machiavelli Parking","n_posti":50,"indirizzo":"Via Finocchiaro Aprile","comune":"Milano","tipo":"AUTORIMESSA CONVENZIONATA"}},
{"type":"Feature","geometry":{"type":"Point","coordinates":[9.188926595768816,45.48172845303429]},"properties":{"id":1031,"nome":"De Cristoforis Rosales","n_posti":123,"indirizzo":"Via De Cristoforis/Via Rosales/V.le  Montegrappa","comune":"Milano","tipo":"AUTORIMESSA CONVENZIONATA"}},
{"type":"Feature","geometry":{"type":"Point","coordinates":[9.15437407831109,45.461086892903346]},"properties":{"id":1095,"nome":"Washington Digione","n_posti":151,"indirizzo":"Washington/Digione","comune":"Milano","tipo":"AUTORIMESSA CONVENZIONATA"}},
{"type":"Feature","geometry":{"type":"Point","coordinates":[9.167975211808614,45.47989787514432]},"properties":{"id":1101,"nome":"Sempione Prina","n_posti":97,"indirizzo":"C.so Sempione ang. Via Prina 14","comune":"Milano","tipo":"AUTORIMESSA CONVENZIONATA"}},
{"type":"Feature","geometry":{"type":"Point","coordinates":[9.208998865035241,45.47231377182678]},"properties":{"id":3000,"nome":"Bixio","n_posti":18,"indirizzo":"Via Bixio 15","comune":"Milano","tipo":"AUTORIMESSA CONVENZIONATA"}},
{"type":"Feature","geometry":{"type":"Point","coordinates":[9.247392692428754,45.47669722932176]},"properties":{"id":3001,"nome":"Rubattino Pitteri","n_posti":129,"indirizzo":"Via Rubattino","comune":"Milano","tipo":"AUTORIMESSA CONVENZIONATA"}},
{"type":"Feature","geometry":{"type":"Point","coordinates":[9.212064695727056,45.44763378374297]},"properties":{"id":3002,"nome":"Lodi (Centro Commerciale)","n_posti":98,"indirizzo":"P.le Lodi","comune":"Milano","tipo":"AUTORIMESSA CONVENZIONATA"}},
{"type":"Feature","geometry":{"type":"Point","coordinates":[9.172139453935426,45.48183593009029]},"properties":{"id":3500,"nome":"Lomazzo Bertini","n_posti":85,"indirizzo":"Via Lomazzo 19 / Bertini 10","comune":"Milano","tipo":"AUTORIMESSA CONVENZIONATA"}},
{"type":"Feature","geometry":{"type":"Point","coordinates":[9.210201076448408,45.44959371555389]},"properties":{"id":3502,"nome":"Colletta Friuli","n_posti":70,"indirizzo":"Via Pietro Colletta \\ Via Friuli 11-13","comune":"Milano","tipo":"AUTORIMESSA CONVENZIONATA"}},
{"type":"Feature","geometry":{"type":"Point","coordinates":[9.194481048023054,45.50753564165115]},"properties":{"id":4000,"nome":"Cà Granda De Gasperis","n_posti":120,"indirizzo":"Viale Cà Granda ang. Via De Gasperis","comune":"Milano","tipo":"AUTORIMESSA CONVENZIONATA"}},
{"type":"Feature","geometry":{"type":"Point","coordinates":[9.177211951040862,45.449638672716326]},"properties":{"id":4001,"nome":"Pichi Magolfa","n_posti":144,"indirizzo":"Via Gola","comune":"Milano","tipo":"AUTORIMESSA CONVENZIONATA"}},
{"type":"Feature","geometry":{"type":"Point","coordinates":[9.198451289325282,45.44321559773557]},"properties":{"id":4002,"nome":"Carlo De Angeli (Esselunga)","n_posti":171,"indirizzo":"Via Carlo De Angeli","comune":"Milano","tipo":"AUTORIMESSA CONVENZIONATA"}},
{"type":"Feature","geometry":{"type":"Point","coordinates":[9.19593277631657,45.49916703479249]},"properties":{"id":4003,"nome":"Zara Laurana","n_posti":125,"indirizzo":"Zara / Laurana","comune":"Milano","tipo":"AUTORIMESSA CONVENZIONATA"}},
{"type":"Feature","geometry":{"type":"Point","coordinates":[9.216179405741318,45.43667331130664]},"properties":{"id":4004,"nome":"Pismonte Marco D'Agrate","n_posti":28,"indirizzo":"Via Pismonte / Marco D'Agrate","comune":"Milano","tipo":"AUTORIMESSA CONVENZIONATA"}},
{"type":"Feature","geometry":{"type":"Point","coordinates":[9.212085262813327,45.51737491278891]},"properties":{"id":8000,"nome":"Bicocca P8","n_posti":420,"indirizzo":"Via Beccaro","comune":"Milano","tipo":"PUBBLICI"}}
]}